{
    "artists": [
        {
            "email": "pari.corbitt@gmail.com",
            "insta": "pari_corbitt",
            "lat": -37.7460575,
            "lng": 144.963964,
            "name": "Pari Corbitt"
        },
        {
            "email": "dean.kalcoff@gmail.com",
            "insta": "deankalcoff",
            "lat": -37.9712304,
            "lng": 144.4913101,
            "name": "Dean Kalcoff"
        },
        {
            "email": "daniqueipotattoo@hotmail.com",
            "insta": "daniqueipo",
            "lat": 51.5285578,
            "lng": 0.242025,
            "name": "Dani Queipo"
        },
        {
            "email": "CJWTATTOOS@GMAIL.COM",
            "insta": "chriswielk",
            "lat": 37.7251452,
            "lng": -122.4648061,
            "name": "Chris Wielk"
        },
        {
            "insta": "shitwishtattoos",
            "lat": 42.2461445,
            "lng": -83.6120432,
            "name": "Jon Larson"
        },
        {
            "email": "dale.tattoo@gmail.com",
            "insta": "dvlewintertvttoos",
            "lat": -27.461636,
            "lng": 153.004461,
            "name": "Dale Winter"
        },
        {
            "email": "mattwebbtattoo@gmail.com",
            "insta": "mattwebbtattoo",
            "lat": 53.7435634,
            "lng": -0.3464867,
            "name": "Matt Webb"
        },
        {
            "email": "bradleandertattoo@gmail.com",
            "insta": "bradleandertattoo",
            "lat": 53.4021816,
            "lng": -1.5038851,
            "name": "Brad Leander"
        },
        {
            "email": "samkane2@hotmail.com",
            "insta": "samkanetattoo",
            "lat": -34.033982,
            "lng": 151.10118,
            "name": "Sam Kane"
        },
        {
            "insta": "stefanistipple.tattoos",
            "lat": 39.9588226,
            "lng": -75.6058243,
            "name": "Stefani Stipple"
        },
        {
            "insta": "kelling_btl",
            "lat": 51.3995287,
            "lng": 7.4300481999999874,
            "name": "Max Kelling"
        },
        {
            "email": "magda.hanke@web.de",
            "insta": "magda_hanke",
            "lat": 53.560511,
            "lng": 9.958298499999955,
            "name": "Magda Hanke"
        },
        {
            "email": "Chrisstockingstattoo@gmail.com",
            "insta": "chrisstockings",
            "lat": 52.084287,
            "lng": 0.4373729999999796,
            "name": "Chris Stockings"
        },
        {
            "insta": "mark__cross",
            "lat": 40.715831,
            "lng": -73.94441589999997,
            "name": "Mark Cross"
        },
        {
            "email": "Mikestockingstattoouk@gmail.com",
            "insta": "mikestockings",
            "lat": 34.083853,
            "lng": -118.350392,
            "name": "Mike Stockings"
        },
        {
            "email": "Joefrosttattoo@gmail.com",
            "insta": "hellomynamesjoe",
            "lat": 53.38112899999999,
            "lng": -1.47008500000004,
            "name": "Joe Frost"
        },
        {
            "email": "Iain@longfox.co.uk",
            "insta": "iainsellar",
            "lat": 51.454513,
            "lng": -2.5879099999999653,
            "name": "Iain Sellar"
        },
        {
            "email": "Kellyviolettattoo@gmail.com",
            "insta": "kellyviolence",
            "lat": 51.5073509,
            "lng": -0.12775829999998223,
            "name": "Kelly Violet"
        },
        {
            "email": "",
            "insta": "camilo.pino.maciel",
            "lat": -33.4378305,
            "lng": -70.65044920000003,
            "name": "Camilo Pino Maciel"
        },
        {
            "email": "jonnyfarq@gmail.com",
            "insta": "jon_ftw",
            "lat": -27.454654,
            "lng": 153.02981799999998,
            "name": "Jonny Farq"
        },
        {
            "email": "missquartztattoo@hotmail.com",
            "insta": "missquartz",
            "lat": -37.857438,
            "lng": 145.02947560000007,
            "name": "Miss Quartz"
        },
        {
            "email": "CodyDresserTattoos@gmail.com",
            "insta": "codydresser",
            "lat": 32.5631924,
            "lng": -97.14167680000003,
            "name": "Cody Dresser"
        },
        {
            "insta": "block_ness",
            "lat": 44.268207,
            "lng": -88.47094500000003,
            "name": "Maggie Gosselar"
        },
        {
            "email": "Tattoosbyalexis@gmail.com",
            "insta": "tattoosbyalexis",
            "lat": 38.286931,
            "lng": -85.82456300000001,
            "name": "Alexis Gillenwater"
        },
        {
            "email": "mitchhoggardtattoos@yahoo.com",
            "insta": "mitchhoggardtattoos",
            "lat": 32.529524,
            "lng": -92.6424097,
            "name": "Mitch Hoggard"
        },
        {
            "insta": "hellonastasya",
            "lat": 53.2415041,
            "lng": 50.22124629999996,
            "name": "Eto Nastasya"
        },
        {
            "insta": "lambdin_",
            "lat": 39.9774295,
            "lng": -75.1246334,
            "name": "Matt Lambdin"
        },
        {
            "insta": "isnardbarbosa",
            "lat": 53.344115,
            "lng": -6.268719000000033,
            "name": "Isnard Barbosa"
        },
        {
            "email": "Ulyss.Blair@gmail.com",
            "insta": "ulyss_blair",
            "lat": 34.8031405,
            "lng": -87.67685689999996,
            "name": "Ulysses Blair"
        },
        {
            "email": "T_wagstaff@outlook.com",
            "insta": "tomwagstaff",
            "lat": 52.470675,
            "lng": -2.1539599999999837,
            "name": "Tom Wagstaff"
        },
        {
            "email": "info.thedrowntown@gmail.com",
            "insta": "thedrowntown",
            "lat": 39.9902309,
            "lng": -83.01244179999998,
            "name": "Mike Moses"
        },
        {
            "insta": "squirestrahan",
            "lat": 27.894302,
            "lng": -82.33030610000003,
            "name": "Squire Strahan"
        },
        {
            "insta": "dalmirodalmont",
            "lat": 51.5073509,
            "lng": -0.12775829999998223,
            "name": "Dalmiro Dalmont"
        },
        {
            "email": "Jeroengardenier@Gmail.com",
            "insta": "jeroengardenier",
            "lat": 52.3682585,
            "lng": 4.87538219999999,
            "name": "Jeroen Gardenier"
        },
        {
            "email": "Sabeontheroad@gmail.com",
            "insta": "claudiadesabe",
            "lat": 51.5073509,
            "lng": -0.12775829999998223,
            "name": "Claudia De Sabe"
        },
        {
            "insta": "horitomo_stateofgrace",
            "lat": 37.3493976,
            "lng": -121.8939823,
            "name": "Horitomo"
        },
        {
            "insta": "philhatchetyau",
            "lat": 32.7150263,
            "lng": -117.16045459999998,
            "name": "Phil Hatchet-Yau"
        },
        {
            "email": "georginatattoo@gmail.com",
            "insta": "georginaliliane",
            "lat": 51.06554750000001,
            "lng": -1.3133397999999943,
            "name": "Georgina Liliane"
        },
        {
            "email": "nomi.tattoo@gmail.com",
            "insta": "lizard__milk",
            "lat": 49.2830802,
            "lng": -123.10707360000004,
            "name": "Nomi Chi"
        },
        {
            "email": "lucyoconnelltattoo@gmail.com",
            "insta": "lucylucyhorsehead",
            "lat": 53.795967,
            "lng": -1.5401910000000498,
            "name": "Lucy O'Connell"
        },
        {
            "email": "revoltingworshiptattoos@gmail.com",
            "insta": "revoltingworship",
            "lat": 40.01799099999999,
            "lng": -82.87238500000001,
            "name": "Nate Burns"
        },
        {
            "email": "",
            "insta": "s6girl",
            "lat": 51.56029299999999,
            "lng": 0.2202838000000611,
            "name": "Becca"
        },
        {
            "email": "danfletchertattoos@gmail.com",
            "insta": "blindvulture",
            "lat": 49.86187400000001,
            "lng": -97.10879699999998,
            "name": "Dan Fletcher"
        },
        {
            "insta": "aj_tattoo",
            "lat": -31.9307198,
            "lng": 115.85960219999993,
            "name": "Aaron Ashworth"
        },
        {
            "insta": "danielformentin",
            "lat": -32.0526056,
            "lng": 115.74961459999997,
            "name": "Daniel Formentin"
        },
        {
            "email": "LENJERTATTOOS@GMAIL.COM",
            "insta": "challenjer",
            "lat": 41.31595939999999,
            "lng": -81.8358136,
            "name": "Chad Lenjer"
        },
        {
            "email": "meibrent@hotmail.com",
            "insta": "spinsterette",
            "lat": 40.750872,
            "lng": -73.98666700000001,
            "name": "Myra Brodsky"
        },
        {
            "email": "SNEAKYMITCHTATTOO@HOTMAIL.COM",
            "insta": "sneakymitch",
            "lat": 53.793713,
            "lng": -1.5392795000000206,
            "name": "Mitchell Allenden"
        },
        {
            "email": "",
            "insta": "grindesign_tattoo",
            "lat": 47.162494,
            "lng": 19.503304100000037,
            "name": "Rob Borbas"
        },
        {
            "insta": "joshuamarkstattoos",
            "lat": 34.0522342,
            "lng": -118.2436849,
            "name": "Joshua Marks"
        },
        {
            "insta": "tdonaire",
            "lat": 41.38506389999999,
            "lng": 2.1734034999999494,
            "name": "Toni Donaire"
        },
        {
            "insta": "jesuscuesta",
            "lat": 40.4167754,
            "lng": -3.7037901999999576,
            "name": "Jesus Cuesta"
        },
        {
            "email": "danmolloytattoo@gmail.com",
            "insta": "danmolloytattooer",
            "lat": -31.9505269,
            "lng": 115.86045719999993,
            "name": "Dan Molloy"
        },
        {
            "email": "JONATHAN.EARTHGRASPER@GMAIL.COM",
            "insta": "earthgrasper",
            "lat": 39.7631459,
            "lng": -104.9797423,
            "name": "Jonathan Penchoff"
        },
        {
            "email": "",
            "insta": "alex_sances_one",
            "lat": 51.31705359999999,
            "lng": 9.492455199999995,
            "name": "Alex Dorfler"
        },
        {
            "email": "james.mckenna12@gmail.com",
            "insta": "j__mckenna",
            "lat": -32.2172474,
            "lng": 116.00833149999994,
            "name": "James McKenna"
        },
        {
            "insta": "muscadomestica",
            "lat": 40.0259959,
            "lng": -83.01468590000002,
            "name": "Kat Marie Moya"
        },
        {
            "insta": "https://instagram.com/ninmesarra",
            "lat": 50.937531,
            "lng": 6.960278600000038,
            "name": "Lorena Morato"
        },
        {
            "email": "",
            "insta": "kshocs",
            "lat": 49.2827291,
            "lng": -123.12073750000002,
            "name": "Katie Shocrylas"
        },
        {
            "email": "henrytattoosme@gmail.com",
            "insta": "henrytattoos",
            "lat": 35.5778197,
            "lng": -82.58051999999998,
            "name": "Henry Gassner"
        },
        {
            "insta": "samuelebriganti",
            "lat": 43.779985,
            "lng": 11.258086800000001,
            "name": "Samuel Briganti"
        },
        {
            "email": "micotattoo6162@gmail.com",
            "insta": "micotattoo",
            "lat": 35.17955429999999,
            "lng": 129.07564160000004,
            "name": "Mico"
        },
        {
            "email": "Alexzampirritattoos@gmail.com",
            "insta": "azamp_",
            "lat": 40.4064881,
            "lng": -75.50184769999998,
            "name": "Alex Zampirri"
        },
        {
            "email": "6682robjunod@gmail.com",
            "insta": "robjunod",
            "lat": 37.2291815,
            "lng": -93.29475120000001,
            "name": "Rob Junod"
        },
        {
            "email": "",
            "insta": "ian_ildet",
            "lat": -34.60368440000001,
            "lng": -58.381559100000004,
            "name": "Ian Wahnshaffe"
        },
        {
            "insta": "monikadarling",
            "lat": 43.6602101,
            "lng": -79.41545389999999,
            "name": "Monika Vanasse"
        },
        {
            "email": "tatueringvisby@gmail.com",
            "insta": "kijabarudi",
            "lat": 57.6355946,
            "lng": 18.307409199999938,
            "name": "Kija Barudi"
        },
        {
            "insta": "lizhapi",
            "lat": -31.9307198,
            "lng": 115.85960219999993,
            "name": "Elizabeth Hapi"
        },
        {
            "email": "zanependergast@gmail.com",
            "insta": "zanependergast_tattoo",
            "lat": 36.1884944,
            "lng": -86.72888369999998,
            "name": "Zane Pendergast"
        },
        {
            "email": "eltanquetattooer@gmail.com",
            "insta": "el_tanque_tattooer",
            "lat": 41.87779150000001,
            "lng": 12.523409300000026,
            "name": "El Tanque"
        },
        {
            "email": "brandochiesa.appointments@gmail.com",
            "insta": "brandochiesa",
            "lat": 43.7695604,
            "lng": 11.25581360000001,
            "name": "Brando Chiesa"
        },
        {
            "insta": "fabioonorini",
            "lat": 45.0573607,
            "lng": 7.671222400000033,
            "name": "Fabio Onorini"
        },
        {
            "email": "Nembotattoo@gmail.com",
            "insta": "fabio_nembo",
            "lat": 41.87779150000001,
            "lng": 12.523409300000026,
            "name": "Fabio Nembo"
        },
        {
            "insta": "gianluca_artico",
            "lat": 41.7712882,
            "lng": 12.227009599999974,
            "name": "Gianluca Artico"
        },
        {
            "email": "DESIGNS4SAM@YAHOO.CO.UK",
            "insta": "sam_ford_tattoos",
            "lat": 53.353077,
            "lng": -2.855109999999968,
            "name": "Samantha Ford"
        },
        {
            "email": "marcofgiovanni@gmail.com",
            "insta": "thehallowedharetattoo",
            "lat": 52.6308859,
            "lng": 1.2973550000000387,
            "name": "Marco Giovanni"
        },
        {
            "email": "Therichwren@gmail.com",
            "insta": "therichwren",
            "lat": 40.211702,
            "lng": -75.139905,
            "name": "Rich Wren"
        },
        {
            "email": "vontomatattoo@gmail.com",
            "insta": "vontoma",
            "lat": 42.3600825,
            "lng": -71.05888010000001,
            "name": "Von Toma"
        },
        {
            "email": "lo.marie.tattoo@gmail.com",
            "insta": "lo_marie_s",
            "lat": 53.4835718,
            "lng": -2.2314062,
            "name": "Lauren Marie Sutton"
        },
        {
            "insta": "horikoii",
            "lat": 35.17955429999999,
            "lng": 129.07564160000004,
            "name": "Horikoi Young-jin Jeon"
        },
        {
            "email": "Mrenshawtattoos@gmail.com",
            "insta": "mattylaboosh_hgtc",
            "lat": 53.43043400000001,
            "lng": -1.3573140999999396,
            "name": "Matt Renshaw"
        },
        {
            "email": "Harpertattoos@gmail.com",
            "insta": "laurenharpertattoo",
            "lat": 53.4837261,
            "lng": -2.2324212999999418,
            "name": "Lauren Harper"
        },
        {
            "email": "Delphinenoiztoyink@gmail.com",
            "insta": "delphinenoiztoy",
            "lat": 51.54374900000001,
            "lng": -0.025351999999998043,
            "name": "Delphine Noiztoy"
        },
        {
            "email": "goldenyeti@ymail.com",
            "insta": "golden_yeti",
            "lat": 35.925885,
            "lng": -86.87273979999998,
            "name": "Jeff Barnard"
        },
        {
            "email": "zaoink@gmail.com",
            "insta": "murielzaotattoo",
            "lat": 33.4483771,
            "lng": -112.07403729999999,
            "name": "Muriel Zao"
        },
        {
            "email": "samclarktattoos@gmail.com",
            "insta": "samclarktattoos",
            "lat": -26.3645433,
            "lng": 152.96766950000006,
            "name": "Sam Clark"
        },
        {
            "email": "Jacobwiman@gmail.com",
            "insta": "blackmagicjake",
            "lat": 55.5946967,
            "lng": 12.98928479999995,
            "name": "Jacob Wiman"
        },
        {
            "email": "Johnbarrett863@gmail.com",
            "insta": "yogi_barrett",
            "lat": 33.4473361,
            "lng": -84.14686159999997,
            "name": "John Barrett"
        },
        {
            "email": "info@jesserix.com",
            "insta": "jesse_rix",
            "lat": 42.933692,
            "lng": -72.27814089999998,
            "name": "Jesse Rix"
        },
        {
            "insta": "vika_kiwitattoo",
            "lat": 59.91482699999999,
            "lng": 30.30701399999998,
            "name": "Vika Kiwi"
        },
        {
            "insta": "saramacneiltattoo",
            "lat": -46.411449,
            "lng": 168.35057660000007,
            "name": "Sara Macneil"
        },
        {
            "email": "",
            "insta": "HeathClifford",
            "lat": -46.411449,
            "lng": 168.35057660000007,
            "name": "Heath Clifford"
        },
        {
            "insta": "elchupacabrad",
            "lat": 35.925885,
            "lng": -86.87273979999998,
            "name": "Brad Hill"
        },
        {
            "email": "murrayftw@gmail.com",
            "insta": "murraysell",
            "lat": 35.925885,
            "lng": -86.87273979999998,
            "name": "Murray Sell"
        },
        {
            "insta": "hawaikatattoo",
            "lat": 46.482526,
            "lng": 30.723309500000028,
            "name": "Jenia Storik"
        },
        {
            "email": "davidschaston@gmail.com",
            "insta": "davidchastontattoo",
            "lat": -33.9303,
            "lng": 18.42213000000004,
            "name": "David Chaston"
        },
        {
            "email": "ZackDeatonTattoo@gmail.com",
            "insta": "zackdeaton",
            "lat": 36.176546,
            "lng": -86.75082099999997,
            "name": "Zack Deaton"
        },
        {
            "email": "Debbiejonestattoos@gmail.com",
            "insta": "debbiejonestattoos",
            "lat": 51.6186698,
            "lng": -3.9474663999999393,
            "name": "Debbie Jones"
        },
        {
            "email": "bettyrosetattoos@gmail.com",
            "insta": "bettyrosetattoos",
            "lat": 40.6781784,
            "lng": -73.9441579,
            "name": "Betty Rose"
        },
        {
            "email": "mikedorseytattoo@gmail.com",
            "insta": "mikedorseytattoo",
            "lat": 39.1031182,
            "lng": -84.51201960000003,
            "name": "Mike Dorsey"
        }
    ]
}