{
    "artists": [
        {
            "email": "pari.corbitt@gmail.com",
            "insta": "https://www.instagram.com/pari_corbitt/",
            "lat": -37.7460575,
            "lng": 144.963964,
            "name": "Pari Corbitt",
            "tags": [
                "black and grey",
                "floral",
                "female",
                "non-male"
            ]
        },
        {
            "email": "dean.kalcoff@gmail.com",
            "insta": "https://www.instagram.com/deankalcoff/",
            "lat": -37.9712304,
            "lng": 144.4913101,
            "name": "Dean Kalcoff",
            "tags": [
                "neotrad",
                "star wars",
                "dinosaurs",
                "spiders",
                "bright colors"
            ]
        },
        {
            "email": "daniqueipotattoo@hotmail.com",
            "insta": "https://www.instagram.com/daniqueipo/",
            "lat": 51.5285578,
            "lng": 0.242025,
            "name": "Dani Queipo",
            "tags": [
                "traditional",
                "American traditional",
                "bright color"
            ]
        },
        {
            "email": "CJWTATTOOS@GMAIL.COM",
            "insta": "https://www.instagram.com/chriswielk/",
            "lat": 37.7251452,
            "lng": -122.4648061,
            "name": "Chris Wielk",
            "tags": [
                "Japanese traditional"
            ]
        },
        {
            "insta": "https://www.instagram.com/shitwishtattoos/",
            "lat": 42.2461445,
            "lng": -83.6120432,
            "name": "Jon Larson",
            "tags": [
                "American traditional",
                "bright color",
                "traditional"
            ]
        },
        {
            "email": "dale.tattoo@gmail.com",
            "insta": "https://www.instagram.com/dvlewintertvttoos/",
            "lat": -27.461636,
            "lng": 153.004461,
            "name": "Dale Winter",
            "tags": [
                "Japanese traditional",
                "Japanese neotrad",
                "neotrad"
            ]
        },
        {
            "email": "mattwebbtattoo@gmail.com",
            "insta": "https://www.instagram.com/mattwebbtattoo/",
            "lat": 53.7435634,
            "lng": -0.3464867,
            "name": "Matt Webb",
            "tags": [
                "neotrad",
                "floral"
            ]
        },
        {
            "email": "bradleandertattoo@gmail.com",
            "insta": "https://www.instagram.com/bradleandertattoo/",
            "lat": 53.4021816,
            "lng": -1.5038851,
            "name": "Brad Leander",
            "tags": [
                "neotrad",
                "floral",
                "pop culture"
            ]
        },
        {
            "email": "samkane2@hotmail.com",
            "insta": "https://www.instagram.com/samkanetattoo/",
            "lat": -34.033982,
            "lng": 151.10118,
            "name": "Sam Kane",
            "tags": [
                "traditional",
                "neotraditional"
            ]
        },
        {
            "insta": "https://www.instagram.com/stefanistipple.tattoos/",
            "lat": 39.9588226,
            "lng": -75.6058243,
            "name": "Stefani Stipple",
            "tags": [
                "black and grey",
                "fine line",
                "geometric",
                "female",
                "non-male"
            ]
        },
        {
            "insta": "https://www.instagram.com/kelling_btl/",
            "lat": 51.3995287,
            "lng": 7.4300481999999874,
            "name": "Max Kelling",
            "tags": [
                "American traditional",
                "bright color"
            ]
        },
        {
            "email": "magda.hanke@web.de",
            "insta": "https://www.instagram.com/magda_hanke/",
            "lat": 53.560511,
            "lng": 9.958298499999955,
            "name": "Magda Hanke",
            "tags": [
                "neotrad",
                "floral",
                "female",
                "non-male"
            ]
        },
        {
            "email": "Chrisstockingstattoo@gmail.com",
            "insta": "https://www.instagram.com/chrisstockings/",
            "lat": 52.084287,
            "lng": 0.4373729999999796,
            "name": "Chris Stockings",
            "tags": [
                "neotrad",
                "girly",
                "traditional"
            ]
        },
        {
            "insta": "https://www.instagram.com/mark__cross/",
            "lat": 40.715831,
            "lng": -73.94441589999997,
            "name": "Mark Cross",
            "tags": [
                "American traditional",
                "traditional"
            ]
        },
        {
            "email": "Mikestockingstattoouk@gmail.com",
            "insta": "https://www.instagram.com/mikestockings",
            "lat": 34.083853,
            "lng": -118.350392,
            "name": "Mike Stockings",
            "tags": [
                "neotrad",
                "bright color",
                "dark"
            ]
        },
        {
            "email": "Joefrosttattoo@gmail.com",
            "insta": "https://www.instagram.com/hellomynamesjoe/",
            "lat": 53.38112899999999,
            "lng": -1.47008500000004,
            "name": "Joe Frost",
            "tags": [
                "neotrad",
                "art nouveau",
                "bright color"
            ]
        },
        {
            "email": "Iain@longfox.co.uk",
            "insta": "https://www.instagram.com/iainsellar/",
            "lat": 51.454513,
            "lng": -2.5879099999999653,
            "name": "Iain Sellar",
            "tags": [
                "blackwork",
                "black and grey",
                "black",
                "traditional",
                "neotrad"
            ]
        },
        {
            "email": "Kellyviolettattoo@gmail.com",
            "insta": "https://www.instagram.com/kellyviolence/",
            "lat": 51.5073509,
            "lng": -0.12775829999998223,
            "name": "Kelly Violet",
            "tags": [
                "blackwork",
                "black and gray",
                "black",
                "floral",
                "female",
                "non-male"
            ]
        },
        {
            "email": "",
            "insta": "https://www.instagram.com/camilo.pino.maciel/",
            "lat": -33.4378305,
            "lng": -70.65044920000003,
            "name": "Camilo Pino Maciel",
            "tags": [
                "Japanese traditional",
                "neotrad"
            ]
        },
        {
            "email": "jonnyfarq@gmail.com",
            "insta": "https://www.instagram.com/jon_ftw",
            "lat": -27.454654,
            "lng": 153.02981799999998,
            "name": "Jonny Farq",
            "tags": [
                "neotrad"
            ]
        },
        {
            "email": "missquartztattoo@hotmail.com",
            "insta": "https://www.instagram.com/missquartz/",
            "lat": -37.857438,
            "lng": 145.02947560000007,
            "name": "Miss Quartz",
            "tags": [
                "traditional",
                "neotrad",
                "bright color"
            ]
        },
        {
            "email": "CodyDresserTattoos@gmail.com",
            "insta": "https://www.instagram.com/codydresser/",
            "lat": 32.5631924,
            "lng": -97.14167680000003,
            "name": "Cody Dresser",
            "tags": [
                "bright color",
                "harry potter",
                "star wars"
            ]
        },
        {
            "insta": "https://www.instagram.com/block_ness/",
            "lat": 44.268207,
            "lng": -88.47094500000003,
            "name": "Maggie Gosselar",
            "tags": [
                "neotrad",
                "queer",
                "non-male",
                "nonbinary"
            ]
        },
        {
            "email": "Tattoosbyalexis@gmail.com",
            "insta": "https://www.instagram.com/tattoosbyalexis/",
            "lat": 38.286931,
            "lng": -85.82456300000001,
            "name": "Alexis Gillenwater",
            "tags": [
                "neotrad",
                "harry potter",
                "non-male",
                "female"
            ]
        },
        {
            "email": "mitchhoggardtattoos@yahoo.com",
            "insta": "https://www.instagram.com/mitchhoggardtattoos/",
            "lat": 36.1124236,
            "lng": -86.74643609999998,
            "name": "Mitch Hoggard",
            "tags": [
                "traditional",
                "American traditional",
                "bright color"
            ]
        },
        {
            "insta": "https://www.instagram.com/hellonastasya/",
            "lat": 53.2415041,
            "lng": 50.22124629999996,
            "name": "Eto Nastasya",
            "tags": [
                "black and grey",
                "black",
                "spooky",
                "girly"
            ]
        },
        {
            "insta": "https://www.instagram.com/lambdin_/",
            "lat": 39.9774295,
            "lng": -75.1246334,
            "name": "Matt Lambdin",
            "tags": [
                "Japanese traditional",
                "neotrad",
                "bright color"
            ]
        },
        {
            "insta": "https://www.instagram.com/isnardbarbosa/",
            "lat": 53.344115,
            "lng": -6.268719000000033,
            "name": "Isnard Barbosa",
            "tags": [
                "neotrad"
            ]
        },
        {
            "email": "Ulyss.Blair@gmail.com",
            "insta": "https://www.instagram.com/ulyss_blair/",
            "lat": 34.8031405,
            "lng": -87.67685689999996,
            "name": "Ulysses Blair",
            "tags": [
                "neotrad",
                "floral",
                "birds",
                "dark"
            ]
        },
        {
            "email": "T_wagstaff@outlook.com",
            "insta": "https://www.instagram.com/tomwagstaff/",
            "lat": 52.470675,
            "lng": -2.1539599999999837,
            "name": "Tom Wagstaff",
            "tags": [
                "neotrad"
            ]
        },
        {
            "email": "info.thedrowntown@gmail.com",
            "insta": "https://www.instagram.com/thedrowntown/",
            "lat": 39.9902309,
            "lng": -83.01244179999998,
            "name": "Mike Moses",
            "tags": [
                "neotrad",
                "dark",
                "elemental"
            ]
        },
        {
            "insta": "https://www.instagram.com/squirestrahan/",
            "lat": 27.894302,
            "lng": -82.33030610000003,
            "name": "Squire Strahan",
            "tags": [
                "floral",
                "dark",
                "neotrad",
                "stylized realism"
            ]
        },
        {
            "insta": "https://www.instagram.com/dalmirodalmont/",
            "lat": 51.5073509,
            "lng": -0.12775829999998223,
            "name": "Dalmiro Dalmont",
            "tags": [
                "Japanese traditional"
            ]
        },
        {
            "email": "Jeroengardenier@Gmail.com",
            "insta": "https://www.instagram.com/jeroengardenier/",
            "lat": 52.3682585,
            "lng": 4.87538219999999,
            "name": "Jeroen Gardenier",
            "tags": [
                "Japanese traditional",
                "neotrad"
            ]
        },
        {
            "email": "Sabeontheroad@gmail.com",
            "insta": "https://www.instagram.com/claudiadesabe/",
            "lat": 51.5073509,
            "lng": -0.12775829999998223,
            "name": "Claudia De Sabe",
            "tags": [
                "Japanese traditional",
                "neotrad",
                "female",
                "non-male"
            ]
        },
        {
            "insta": "https://www.instagram.com/horitomo_stateofgrace/",
            "lat": 37.3493976,
            "lng": -121.8939823,
            "name": "Horitomo",
            "tags": [
                "Japanese traditional",
                "cats",
                "monmon cats"
            ]
        },
        {
            "insta": "https://www.instagram.com/philhatchetyau/",
            "lat": 32.7150263,
            "lng": -117.16045459999998,
            "name": "Phil Hatchet-Yau",
            "tags": [
                "American traditional",
                "tigers"
            ]
        }
    ]
}